[ICOM5]#BESTPOSA,ICOM5,0,64.0,FINESTEERING,2269,129755.000,02000800,cdba,16482;SOL_COMPUTED,INS_RTKFIXED,50.77766817103,6.07832598964,178.5169,46.6000,WGS84,0.0649,0.0644,0.0865,"1907",2.000,0.000,13,12,12,12,00,21,05,03*6fdd8cba

#BESTVELA,ICOM5,0,64.0,FINESTEERING,2269,129755.000,02000800,10a2,16482;SOL_COMPUTED,INS_RTKFIXED,0.000,2.000,0.0047,310.759885,0.0003,0*556f83c5

%INSATTQSA,2269,129755.020;2269,129755.020000000,0.957748313,0.016255130,0.004181768,-0.287117490,INS_SOLUTION_GOOD*aa7f081f

%CORRIMUSA,2269,129755.030;1,-0.0000731120567875,-0.0000083534662499,0.0000521803559345,-0.0007077320118335,0.0008881368174285,0.0001594393292871,7.090,0*b388322e

%INSATTQSA,2269,129755.040;2269,129755.040000000,0.957768154,0.016168613,0.004190632,-0.287056052,INS_SOLUTION_GOOD*007cdecc

%CORRIMUSA,2269,129755.040;1,-0.0000774833710654,-0.0000163867982736,0.0000523090961589,-0.0001417406743568,0.0003571765157838,-0.0001249333780219,7.090,0*a69a17b3

%INSATTQSA,2269,129755.050;2269,129755.050000000,0.957768684,0.016136284,0.004176384,-0.287056313,INS_SOLUTION_GOOD*245c3828

%CORRIMUSA,2269,129755.050;1,-0.0000637985315248,-0.0000339322336475,0.0000216981764963,0.0002950279257229,-0.0000647313691643,-0.0002918431023810,7.090,0*59025961

%INSATTQSA,2269,129755.060;2269,129755.060000000,0.957761523,0.016114099,0.004154976,-0.287081759,INS_SOLUTION_GOOD*7b1e6d84

%CORRIMUSA,2269,129755.060;1,-0.0000440770035895,-0.0000462684529982,-0.0000216280792571,0.0002377988806711,-0.0002000069115619,-0.0004469388300816,7.090,0*ce990d58

%INSATTQSA,2269,129755.070;2269,129755.070000000,0.957751353,0.016093533,0.004134882,-0.287117130,INS_SOLUTION_GOOD*20e52882

%CORRIMUSA,2269,129755.070;1,-0.0000344165303699,-0.0000495408371639,-0.0000517548768109,-0.0001259462400738,-0.0001323674442393,-0.0003291754490463,7.090,0*3796a6e7

%INSATTQSA,2269,129755.080;2269,129755.080000000,0.957742223,0.016068100,0.004121059,-0.287149208,INS_SOLUTION_GOOD*71cfdc3b

%CORRIMUSA,2269,129755.080;1,-0.0000380070470615,-0.0000454477830690,-0.0000603569961852,-0.0002580194627925,-0.0000590819433511,-0.0001869870990056,7.090,0*128603d0

%INSATTQSA,2269,129755.090;2269,129755.090000000,0.957738474,0.016039653,0.004115434,-0.287163381,INS_SOLUTION_GOOD*008ab6ca

%CORRIMUSA,2269,129755.090;1,-0.0000458175105923,-0.0000352630592163,-0.0000422169727578,-0.0000348567177043,0.0000407317408484,0.0002411152743884,7.090,0*b7bbf5e6

%INSATTQSA,2269,129755.100;2269,129755.100000000,0.957740646,0.016011257,0.004112907,-0.287157760,INS_SOLUTION_GOOD*df590cdb

%CORRIMUSA,2269,129755.100;1,-0.0000502484049910,-0.0000272046246808,-0.0000105748942761,0.0004173485305932,0.0000393613783625,0.0004396446767608,7.090,0*14e8bfa3

#BESTXYZA,ICOM5,0,64.0,FINESTEERING,2269,129755.100,02000800,44cf,16482;SOL_COMPUTED,INS_RTKFIXED,4018644.0849,427931.6765,4918116.4297,0.0746,0.0635,0.0804,SOL_COMPUTED,INS_RTKFIXED,-0.0058,-0.0018,0.0073,0.0017,0.0018,0.0017,"1907",0.000,2.000,0.000,13,12,12,12,0,21,05,03*dcc2703f

#BESTUTMA,ICOM5,0,64.0,FINESTEERING,2269,129755.100,02000800,a40a,16482;SOL_COMPUTED,INS_RTKFIXED,32,U,5629171.2011,294026.9020,178.5170,46.6000,WGS84,0.0623,0.0617,0.0915,"1907",2.000,0.000,13,12,12,12,0,21,05,03*4811cd63

%INSATTQSA,2269,129755.110;2269,129755.110000000,0.957747500,0.015983917,0.004114827,-0.287136393,INS_SOLUTION_GOOD*ef2a4303

%CORRIMUSA,2269,129755.120;1,-0.0000440019733698,-0.0000081946848000,0.0000368525259047,0.0007400552351309,-0.0003655691378141,0.0002477792742276,7.090,0*f05fedcb

%INSATTQSA,2269,129755.130;2269,129755.130000000,0.957758577,0.015955768,0.004124815,-0.287100865,INS_SOLUTION_GOOD*81ba8dd9

%CORRIMUSA,2269,129755.130;1,-0.0000317332809884,-0.0000010211678688,0.0000306576069831,0.0005833518161356,-0.0006375939392317,-0.0000833629331325,7.090,0*840e6763

%INSATTQSA,2269,129755.170;2269,129755.170000000,0.957751125,0.015962568,0.004201507,-0.287124236,INS_SOLUTION_GOOD*7a84669d

%INSATTQSA,2269,129755.180;2269,129755.180000000,0.957764909,0.015944775,0.004232510,-0.287078786,INS_SOLUTION_GOOD*548061e8

%CORRIMUSA,2269,129755.180;1,-0.0000356372267828,0.0000484965870077,0.0000568059548609,0.0005608051606973,0.0009507007113188,-0.0004953606125824,7.090,0*7e88f8fc

%INSATTQSA,2269,129755.190;2269,129755.190000000,0.957786862,0.015910092,0.004259062,-0.287007067,INS_SOLUTION_GOOD*753f32f2

%CORRIMUSA,2269,129755.190;1,-0.0000635374536306,0.0000391609293336,0.0001106620011484,-0.0000724829941588,0.0006083647654955,-0.0002120274826119,7.090,0*4774708d

#INSATTXA,ICOM5,0,64.0,FINESTEERING,2269,129755.200,02000800,5d25,16482;INS_SOLUTION_GOOD,INS_RTKFIXED,0.992346969,1.599681374,33.366614551,0.0073,0.0068,0.0173,0f000045,0*94abb984

%INSATTQSA,2269,129755.200;2269,129755.200000000,0.957811628,0.015857106,0.004287088,-0.286926920,INS_SOLUTION_GOOD*410e92cd

%CORRIMUSA,2269,129755.200;1,-0.0000962191171322,0.0000309356435027,0.0001432770989128,-0.0007462231734135,-0.0001297259762607,0.0009253135421737,7.090,0*abb3ef75

#BESTGNSSPOSA,ICOM5,0,64.0,FINESTEERING,2269,129755.200,02000800,c292,16482;SOL_COMPUTED,NARROW_INT,50.77766795767,6.07832613239,178.5262,46.6000,WGS84,0.0710,0.0614,0.1463,"1907",2.200,0.000,13,13,13,13,00,21,05,03*c527bf59

#BESTGNSSVELA,ICOM5,0,64.0,FINESTEERING,2269,129755.200,02000800,00b0,16482;SOL_COMPUTED,NARROW_INT,0.050,2.200,0.0291,284.438300,-0.0330,0.0*f8581b01

#BESTPOSA,ICOM5,0,64.0,FINESTEERING,2269,129755.200,02000800,cdba,16482;SOL_COMPUTED,INS_RTKFIXED,50.77766815518,6.07832600833,178.5168,46.6000,WGS84,0.0623,0.0617,0.0915,"1907",2.000,0.000,13,12,12,12,00,21,05,03*ba8c3c62

#BESTVELA,ICOM5,0,64.0,FINESTEERING,2269,129755.200,02000800,10a2,16482;SOL_COMPUTED,INS_RTKFIXED,0.000,2.000,0.0132,19.748522,-0.0011,0*c4fda746

#BESTXYZA,ICOM5,0,64.0,FINESTEERING,2269,129755.200,02000800,44cf,16482;SOL_COMPUTED,INS_RTKFIXED,4018644.0855,427931.6774,4918116.4289,0.0746,0.0635,0.0804,SOL_COMPUTED,INS_RTKFIXED,-0.0107,0.0033,0.0070,0.0017,0.0018,0.0017,"1907",0.000,2.000,0.000,13,12,12,12,0,21,05,03*12cc10d9

#BESTUTMA,ICOM5,0,64.0,FINESTEERING,2269,129755.200,02000800,a40a,16482;SOL_COMPUTED,INS_RTKFIXED,32,U,5629171.2000,294026.9028,178.5168,46.6000,WGS84,0.0623,0.0617,0.0915,"1907",2.000,0.000,13,12,12,12,0,21,05,03*5f598762

%INSATTQSA,2269,129755.210;2269,129755.210000000,0.957831215,0.015817624,0.004312551,-0.286863326,INS_SOLUTION_GOOD*66458886

%CORRIMUSA,2269,129755.210;1,-0.0000936013900339,0.0000289034729781,0.0001366291396447,-0.0009378956819025,-0.0011088548172479,0.0016703333237270,7.090,0*612d6b4d

%INSATTQSA,2269,129755.220;2269,129755.220000000,0.957841508,0.015811324,0.004322386,-0.286829156,INS_SOLUTION_GOOD*68901d4b

%CORRIMUSA,2269,129755.220;1,-0.0000497525715045,0.0000211862141449,0.0000982245074876,-0.0005861619504956,-0.0018623457463939,0.0012202706551323,7.090,0*3b5599a8

%INSATTQSA,2269,129755.230;2269,129755.230000000,0.957843361,0.015821797,0.004317934,-0.286822457,INS_SOLUTION_GOOD*3eb164a2

%CORRIMUSA,2269,129755.230;1,-0.0000076679730138,0.0000071327007686,0.0000490145905619,-0.0000926549423803,-0.0016344912031322,0.0003989339720194,7.090,0*7fdb623f

%INSATTQSA,2269,129755.240;2269,129755.240000000,0.957839415,0.015850863,0.004296692,-0.286834350,INS_SOLUTION_GOOD*4f8f8cbe

%CORRIMUSA,2269,129755.240;1,0.0000364681746744,-0.0000115910414476,0.0000062177760358,0.0000572419511952,-0.0012980603036570,-0.0006358288050328,7.090,0*d47b1dde

%INSATTQSA,2269,129755.250;2269,129755.250000000,0.957832425,0.015886796,0.004269553,-0.286856109,INS_SOLUTION_GOOD*fefbadce

%CORRIMUSA,2269,129755.250;1,0.0000645628053865,-0.0000238318110654,-0.0000234738806170,-0.0004195820753673,-0.0008748622046361,-0.0019124438209116,7.090,0*2d3cf400

%CORRIMUSA,2269,129755.260;1,0.0000633230087485,-0.0000305724449962,-0.0000419727493732,-0.0010221385934570,-0.0003575196281034,-0.0016448459013243,7.090,0*a774f24b

%INSATTQSA,2269,129755.270;2269,129755.270000000,0.957814695,0.015930257,0.004230177,-0.286913475,INS_SOLUTION_GOOD*a0973f4d

%CORRIMUSA,2269,129755.280;1,0.0000472587936400,-0.0000170198810337,-0.0000675153970506,-0.0003582289650646,-0.0000392940106676,0.0004029839390756,7.090,0*32254df1

#INSATTXA,ICOM5,0,64.0,FINESTEERING,2269,129755.300,02000800,5d25,16482;INS_SOLUTION_GOOD,INS_RTKFIXED,0.985031036,1.618833623,33.380238412,0.0073,0.0068,0.0173,0f000045,0*ef8b4c81

#BESTGNSSPOSA,ICOM5,0,64.0,FINESTEERING,2269,129755.300,02000800,c292,16482;SOL_COMPUTED,NARROW_INT,50.77766793880,6.07832614214,178.5259,46.6000,WGS84,0.0710,0.0614,0.1463,"1907",2.300,0.000,13,13,13,13,00,21,05,03*0e54812c

#BESTGNSSVELA,ICOM5,0,64.0,FINESTEERING,2269,129755.300,02000800,00b0,16482;SOL_COMPUTED,NARROW_INT,0.050,2.300,0.0221,161.851785,-0.0030,0.0*8119a076

#BESTPOSA,ICOM5,0,64.0,FINESTEERING,2269,129755.300,02000800,cdba,16482;SOL_COMPUTED,INS_RTKFIXED,50.77766814046,6.07832601202,178.5169,46.6000,WGS84,0.0623,0.0617,0.0915,"1907",2.000,0.000,13,12,12,12,00,21,05,03*cff1936f

#BESTVELA,ICOM5,0,64.0,FINESTEERING,2269,129755.300,02000800,10a2,16482;SOL_COMPUTED,INS_RTKFIXED,0.000,2.000,0.0057,266.723766,0.0033,0*ad026e66

#BESTXYZA,ICOM5,0,64.0,FINESTEERING,2269,129755.300,02000800,44cf,16482;SOL_COMPUTED,INS_RTKFIXED,4018644.0867,427931.6778,4918116.4279,0.0746,0.0635,0.0804,SOL_COMPUTED,INS_RTKFIXED,0.0029,-0.0054,0.0024,0.0017,0.0018,0.0017,"1907",0.000,2.000,0.000,13,12,12,12,0,21,05,03*8e1bd763

#BESTUTMA,ICOM5,0,64.0,FINESTEERING,2269,129755.300,02000800,a40a,16482;SOL_COMPUTED,INS_RTKFIXED,32,U,5629171.1983,294026.9030,178.5169,46.6000,WGS84,0.0623,0.0617,0.0915,"1907",2.000,0.000,13,12,12,12,0,21,05,03*76a543bf
